$GPRMC,093000.98,A,4423.5753906,N,03359.0625863,E,3.67,127.26,011220,0.0,E,A*36
$GPGGA,093000.98,4423.5753906,N,03359.0625863,E,3,04,1.0,9.464,M,0.000,M,0.0,*7B
$GPGSA,A,3,06,07,09,22,,,,,,,,,6.2,2.5,5.7,1*26
$GPGSV,1,1,04,06,38,292,00,07,23,206,00,09,55,279,00,22,33,133,00,1*62
$GPRMC,093001.98,A,4423.5792382,N,03359.0639503,E,4.83,270.00,011220,0.0,E,A*32
$GPGGA,093001.98,4423.5792382,N,03359.0639503,E,3,00,1.0,-5.575,M,0.000,M,0.0,*53
$GPGSA,A,3,06,07,09,22,,,,,,,,,6.2,2.5,5.7,1*26
$GPGSV,1,1,04,06,38,292,00,07,23,206,00,09,55,279,00,22,33,133,00,1*62
$GPRMC,093002.98,A,4423.5796182,N,03359.0647376,E,5.08,194.61,011220,0.0,E,A*36
$GPGGA,093002.98,4423.5796182,N,03359.0647376,E,3,04,1.0,-9.235,M,0.000,M,0.0,*50
$GPGSA,A,3,06,07,09,22,,,,,,,,,6.2,2.5,5.7,1*26
$GPGSV,1,1,04,06,38,292,00,07,23,206,00,09,55,279,00,22,33,133,00,1*62
$GPRMC,093003.98,A,4423.5797688,N,03359.0649987,E,2.78,222.79,011220,0.0,E,A*36
$GPGGA,093003.98,4423.5797688,N,03359.0649987,E,3,04,1.0,-7.851,M,0.000,M,0.0,*51
$GPGSA,A,3,06,07,09,22,,,,,,,,,6.2,2.5,5.7,1*26
$GPGSV,1,1,04,06,38,292,00,07,23,206,00,09,55,279,00,22,33,133,00,1*62
$GPRMC,093004.98,A,4423.5803643,N,03359.0648504,E,3.77,21.66,011220,0.0,E,A*03
$GPGGA,093004.98,4423.5803643,N,03359.0648504,E,3,04,1.0,-8.053,M,0.000,M,0.0,*50
$GPGSA,A,3,06,07,09,22,,,,,,,,,6.2,2.5,5.7,1*26
$GPGSV,1,1,04,06,38,292,00,07,23,206,00,09,55,279,00,22,33,133,00,1*62
$GPRMC,093005.98,A,4423.5798703,N,03359.0648254,E,3.58,315.64,011220,0.0,E,A*33
$GPGGA,093005.98,4423.5798703,N,03359.0648254,E,3,04,1.0,-6.199,M,0.000,M,0.0,*52
$GPGSA,A,3,06,07,09,22,,,,,,,,,6.2,2.5,5.7,1*26
$GPGSV,1,1,04,06,38,292,00,07,23,206,00,09,55,279,00,22,33,133,00,1*62
$GPRMC,093006.98,A,4423.5793963,N,03359.0644646,E,6.37,255.01,011220,0.0,E,A*32
$GPGGA,093006.98,4423.5793963,N,03359.0644646,E,3,04,1.0,-4.529,M,0.000,M,0.0,*54
$GPGSA,A,3,06,07,09,22,,,,,,,,,6.2,2.5,5.7,1*26
$GPGSV,1,1,04,06,38,292,00,07,23,206,00,09,55,279,00,22,33,133,00,1*62
$GPRMC,093007.98,A,4423.5793604,N,03359.0644924,E,1.76,255.01,011220,0.0,E,A*34
$GPGGA,093007.98,4423.5793604,N,03359.0644924,E,3,04,1.0,-2.990,M,0.000,M,0.0,*58
$GPGSA,A,3,06,07,09,22,,,,,,,,,6.2,2.5,5.7,1*26
$GPGSV,1,1,04,06,38,292,00,07,23,206,00,09,55,279,00,22,33,133,00,1*62
$GPRMC,093008.98,A,4423.5791270,N,03359.0643518,E,2.41,199.90,011220,0.0,E,A*36
$GPGGA,093008.98,4423.5791270,N,03359.0643518,E,3,04,1.0,-1.791,M,0.000,M,0.0,*5A
$GPGSA,A,3,06,07,09,22,,,,,,,,,6.2,2.5,5.7,1*26
$GPGSV,1,1,04,06,38,292,00,07,23,206,00,09,55,279,00,22,33,133,00,1*62
$GPRMC,093009.98,A,4423.5789669,N,03359.0642385,E,6.30,156.90,011220,0.0,E,A*30
$GPGGA,093009.98,4423.5789669,N,03359.0642385,E,3,04,1.0,-1.181,M,0.000,M,0.0,*5A
$GPGSA,A,3,06,07,09,22,,,,,,,,,6.2,2.5,5.7,1*26
$GPGSV,1,1,04,06,38,292,00,07,23,206,00,09,55,279,00,22,33,133,00,1*62
$GPRMC,093010.98,A,4423.5791753,N,03359.0643246,E,1.50,156.90,011220,0.0,E,A*37
$GPGGA,093010.98,4423.5791753,N,03359.0643246,E,3,04,1.0,-2.233,M,0.000,M,0.0,*55
$GPGSA,A,3,06,07,09,22,,,,,,,,,6.2,2.5,5.7,1*26
$GPGSV,1,1,04,06,38,292,00,07,23,206,00,09,55,279,00,22,33,133,00,1*62
$GPRMC,093011.98,A,4423.5793210,N,03359.0642268,E,1.82,156.90,011220,0.0,E,A*34
$GPGGA,093011.98,4423.5793210,N,03359.0642268,E,3,04,1.0,-1.877,M,0.000,M,0.0,*50
$GPGSA,A,3,06,07,09,22,,,,,,,,,6.2,2.5,5.7,1*26
$GPGSV,1,1,04,06,38,292,00,07,23,206,00,09,55,279,00,22,33,133,00,1*62
$GPRMC,093012.98,A,4423.5793036,N,03359.0641235,E,3.64,215.66,011220,0.0,E,A*3D
$GPGGA,093012.98,4423.5793036,N,03359.0641235,E,3,04,1.0,-0.946,M,0.000,M,0.0,*5C
$GPGSA,A,3,06,07,09,22,,,,,,,,,6.2,2.5,5.7,1*26
$GPGSV,1,1,04,06,38,292,00,07,23,206,00,09,55,279,00,22,33,133,00,1*62
$GPRMC,093013.98,A,4423.5794473,N,03359.0640670,E,0.49,215.66,011220,0.0,E,A*36
$GPGGA,093013.98,4423.5794473,N,03359.0640670,E,3,04,1.0,-0.362,M,0.000,M,0.0,*57
$GPGSA,A,3,06,07,09,22,,,,,,,,,6.2,2.5,5.7,1*26
$GPGSV,1,1,04,06,38,292,00,07,23,206,00,09,55,279,00,22,33,133,00,1*62
$GPRMC,093014.98,A,4423.5794419,N,03359.0640646,E,1.57,215.66,011220,0.0,E,A*36
$GPGGA,093014.98,4423.5794419,N,03359.0640646,E,3,00,1.0,-0.332,M,0.000,M,0.0,*58
$GPGSA,A,3,06,07,09,22,,,,,,,,,6.2,2.5,5.7,1*26
$GPGSV,1,1,04,06,38,292,00,07,23,206,00,09,55,279,00,22,33,133,00,1*62
$GPRMC,093015.98,A,4423.5791459,N,03359.0640994,E,2.35,64.74,011220,0.0,E,A*06
$GPGGA,093015.98,4423.5791459,N,03359.0640994,E,3,04,1.0,0.022,M,0.000,M,0.0,*73
$GPGSA,A,3,06,07,09,22,,,,,,,,,6.2,2.5,5.7,1*26
$GPGSV,1,1,04,06,38,292,00,07,23,206,00,09,55,279,00,22,33,133,00,1*62
$GPRMC,093016.98,A,4423.5789939,N,03359.0639964,E,1.47,64.74,011220,0.0,E,A*00
$GPGGA,093016.98,4423.5789939,N,03359.0639964,E,3,04,1.0,0.643,M,0.000,M,0.0,*72
$GPGSA,A,3,06,07,09,22,,,,,,,,,6.2,2.5,5.7,1*26
$GPGSV,1,1,04,06,38,292,00,07,23,206,00,09,55,279,00,22,33,133,00,1*62
$GPRMC,093017.98,A,4423.5791587,N,03359.0641479,E,1.35,64.74,011220,0.0,E,A*0A
$GPGGA,093017.98,4423.5791587,N,03359.0641479,E,3,04,1.0,0.161,M,0.000,M,0.0,*7A
$GPGSA,A,3,06,07,09,22,,,,,,,,,6.2,2.5,5.7,1*26
$GPGSV,1,1,04,06,38,292,00,07,23,206,00,09,55,279,00,22,33,133,00,1*62
$GPRMC,093018.98,A,4423.5792350,N,03359.0640968,E,1.97,77.27,011220,0.0,E,A*0A
$GPGGA,093018.98,4423.5792350,N,03359.0640968,E,3,04,1.0,-0.582,M,0.000,M,0.0,*52
$GPGSA,A,3,06,07,09,22,,,,,,,,,6.2,2.5,5.7,1*26
$GPGSV,1,1,04,06,38,292,00,07,23,206,00,09,55,279,00,22,33,133,00,1*62
$GPRMC,093019.98,A,4423.5794010,N,03359.0640987,E,2.01,39.60,011220,0.0,E,A*0E
$GPGGA,093019.98,4423.5794010,N,03359.0640987,E,3,04,1.0,-1.058,M,0.000,M,0.0,*50
$GPGSA,A,3,06,07,09,22,,,,,,,,,6.2,2.5,5.7,1*26
$GPGSV,1,1,04,06,38,292,00,07,23,206,00,09,55,279,00,22,33,133,00,1*62
$GPRMC,093020.98,A,4423.5793665,N,03359.0639892,E,3.69,220.33,011220,0.0,E,A*3F
$GPGGA,093020.98,4423.5793665,N,03359.0639892,E,3,04,1.0,-0.893,M,0.000,M,0.0,*5C
$GPGSA,A,3,06,07,09,22,,,,,,,,,6.2,2.5,5.7,1*26
$GPGSV,1,1,04,06,38,292,00,07,23,206,00,09,55,279,00,22,33,133,00,1*62
$GPRMC,093021.98,A,4423.5675692,N,03359.0592386,E,1.17,220.33,011220,0.0,E,A*38
$GPGGA,093021.98,4423.5675692,N,03359.0592386,E,1,04,1.0,72.105,M,0.000,M,0.0,*4C
$GPGSA,A,3,06,07,09,22,,,,,,,,,6.2,2.5,5.7,1*26
$GPGSV,1,1,04,06,38,292,47,07,23,206,46,09,55,279,42,22,33,133,44,1*65
$GPRMC,093022.98,A,4423.5638499,N,03359.0561690,E,8.99,194.88,011220,0.0,E,A*36
$GPGGA,093022.98,4423.5638499,N,03359.0561690,E,1,04,1.0,66.361,M,0.000,M,0.0,*44
$GPGSA,A,3,06,07,09,22,,,,,,,,,6.2,2.5,5.7,1*26
$GPGSV,1,1,04,06,38,292,48,07,23,206,45,09,55,279,42,22,33,133,44,1*69
$GPRMC,093023.98,A,4423.5791391,N,03359.0639011,E,0.62,194.88,011220,0.0,E,A*37
$GPGGA,093023.98,4423.5791391,N,03359.0639011,E,3,04,1.0,0.197,M,0.000,M,0.0,*70
$GPGSA,A,3,06,07,09,22,,,,,,,,,6.2,2.5,5.7,1*26
$GPGSV,1,1,04,06,38,292,00,07,23,206,00,09,55,279,00,22,33,133,00,1*62
$GPRMC,093024.98,A,4423.5789250,N,03359.0639356,E,0.45,194.88,011220,0.0,E,A*30
$GPGGA,093024.98,4423.5789250,N,03359.0639356,E,3,00,1.0,1.545,M,0.000,M,0.0,*7C
$GPGSA,A,3,06,07,09,22,,,,,,,,,6.2,2.5,5.7,1*26
$GPGSV,1,1,04,06,38,292,00,07,23,206,00,09,55,279,00,22,33,133,00,1*62
$GPRMC,093025.98,A,4423.5790543,N,03359.0639287,E,4.56,251.68,011220,0.0,E,A*33
$GPGGA,093025.98,4423.5790543,N,03359.0639287,E,3,04,1.0,0.822,M,0.000,M,0.0,*74
$GPGSA,A,3,06,07,09,22,,,,,,,,,6.2,2.5,5.7,1*26
$GPGSV,1,1,04,06,38,292,00,07,23,206,00,09,55,279,00,22,33,133,00,1*62
$GPRMC,093026.98,A,4423.5791721,N,03359.0640343,E,3.74,216.76,011220,0.0,E,A*3B
$GPGGA,093026.98,4423.5791721,N,03359.0640343,E,3,03,1.0,0.237,M,0.000,M,0.0,*7E
$GPGSA,A,3,06,07,09,22,,,,,,,,,6.2,2.5,5.7,1*26
$GPGSV,1,1,04,06,38,292,00,07,23,206,00,09,55,279,00,22,33,133,00,1*62
$GPRMC,093027.98,A,4423.5792514,N,03359.0640526,E,2.96,223.11,011220,0.0,E,A*32
$GPGGA,093027.98,4423.5792514,N,03359.0640526,E,3,04,1.0,-0.446,M,0.000,M,0.0,*57
$GPGSA,A,3,06,07,09,22,,,,,,,,,6.2,2.5,5.7,1*26
$GPGSV,1,1,04,06,38,292,00,07,23,206,00,09,55,279,00,22,33,133,00,1*62
$GPRMC,093028.98,A,4423.5793494,N,03359.0640973,E,12.16,192.97,011220,0.0,E,A*07
$GPGGA,093028.98,4423.5793494,N,03359.0640973,E,3,04,1.0,-0.137,M,0.000,M,0.0,*5F
$GPGSA,A,3,06,07,09,22,,,,,,,,,6.2,2.5,5.7,1*26
$GPGSV,1,1,04,06,38,292,00,07,23,206,00,09,55,279,00,22,33,133,00,1*62
$GPRMC,093029.98,A,4423.5792979,N,03359.0640854,E,1.31,192.97,011220,0.0,E,A*3A
$GPGGA,093029.98,4423.5792979,N,03359.0640854,E,3,05,1.0,0.411,M,0.000,M,0.0,*78
$GPGSA,A,3,03,06,07,09,22,,,,,,,,4.9,2.4,4.3,1*28
$GPGSV,2,1,05,03,56,127,00,06,38,292,00,07,23,206,00,09,55,279,00,1*65
$GPGSV,2,2,05,22,33,133,00,,,,,,,,,,,,,1*50
$GPRMC,093030.98,A,4423.5794331,N,03359.0641280,E,3.26,45.80,011220,0.0,E,A*09
$GPGGA,093030.98,4423.5794331,N,03359.0641280,E,3,05,1.0,0.002,M,0.000,M,0.0,*74
$GPGSA,A,3,03,06,07,09,22,,,,,,,,4.9,2.4,4.3,1*28
$GPGSV,2,1,05,03,56,127,00,06,38,292,00,07,23,206,00,09,55,279,00,1*65
$GPGSV,2,2,05,22,33,133,00,,,,,,,,,,,,,1*50
$GPRMC,093031.98,A,4423.5792767,N,03359.0641551,E,0.93,45.80,011220,0.0,E,A*0F
$GPGGA,093031.98,4423.5792767,N,03359.0641551,E,3,05,1.0,1.264,M,0.000,M,0.0,*7C
$GPGSA,A,3,03,06,07,09,22,,,,,,,,4.9,2.4,4.3,1*28
$GPGSV,2,1,05,03,56,127,00,06,38,292,00,07,23,206,00,09,55,279,00,1*65
$GPGSV,2,2,05,22,33,133,00,,,,,,,,,,,,,1*50
$GPRMC,093033.98,A,4423.5789508,N,03359.0645373,E,6.56,44.43,011220,0.0,E,A*0F
$GPGGA,093033.98,4423.5789508,N,03359.0645373,E,3,05,1.0,4.994,M,0.000,M,0.0,*7C
$GPGSA,A,3,03,06,07,09,22,,,,,,,,4.9,2.4,4.3,1*28
$GPGSV,2,1,05,03,56,127,00,06,38,292,00,07,23,206,00,09,55,279,00,1*65
$GPGSV,2,2,05,22,33,133,00,,,,,,,,,,,,,1*50
$GPRMC,093034.98,A,4423.5789365,N,03359.0645495,E,6.74,44.96,011220,0.0,E,A*02
$GPGGA,093034.98,4423.5789365,N,03359.0645495,E,3,05,1.0,5.657,M,0.000,M,0.0,*78
$GPGSA,A,3,03,06,07,09,22,,,,,,,,4.9,2.4,4.3,1*28
$GPGSV,2,1,05,03,56,127,00,06,38,292,00,07,23,206,00,09,55,279,00,1*65
$GPGSV,2,2,05,22,33,133,00,,,,,,,,,,,,,1*50
$GPRMC,093035.98,A,4423.5788441,N,03359.0647152,E,1.11,44.96,011220,0.0,E,A*0B
$GPGGA,093035.98,4423.5788441,N,03359.0647152,E,3,05,1.0,7.119,M,0.000,M,0.0,*7A
$GPGSA,A,3,03,06,07,09,22,,,,,,,,4.9,2.4,4.3,1*28
$GPGSV,2,1,05,03,56,127,00,06,38,292,00,07,24,206,00,09,55,279,00,1*62
$GPGSV,2,2,05,22,33,133,00,,,,,,,,,,,,,1*50
$GPRMC,093036.98,A,4423.5788317,N,03359.0649312,E,2.58,43.16,011220,0.0,E,A*05
$GPGGA,093036.98,4423.5788317,N,03359.0649312,E,3,05,1.0,8.081,M,0.000,M,0.0,*7A
$GPGSA,A,3,03,06,07,09,22,,,,,,,,4.9,2.4,4.3,1*28
$GPGSV,2,1,05,03,56,127,00,06,38,292,00,07,24,206,00,09,55,279,00,1*62
$GPGSV,2,2,05,22,33,133,00,,,,,,,,,,,,,1*50
$GPRMC,093037.98,A,4423.5787296,N,03359.0649994,E,1.58,43.16,011220,0.0,E,A*04
$GPGGA,093037.98,4423.5787296,N,03359.0649994,E,3,05,1.0,9.353,M,0.000,M,0.0,*75
$GPGSA,A,3,03,06,07,09,22,,,,,,,,4.9,2.4,4.3,1*28
$GPGSV,2,1,05,03,56,127,00,06,38,292,00,07,24,206,00,09,55,279,00,1*62
$GPGSV,2,2,05,22,33,133,00,,,,,,,,,,,,,1*50
$GPRMC,093038.98,A,4423.5785959,N,03359.0650364,E,4.69,32.43,011220,0.0,E,A*0D
$GPGGA,093038.98,4423.5785959,N,03359.0650364,E,3,05,1.0,9.975,M,0.000,M,0.0,*73
$GPGSA,A,3,03,06,07,09,22,,,,,,,,4.9,2.4,4.3,1*28
$GPGSV,2,1,05,03,56,127,00,06,38,292,00,07,24,206,00,09,55,279,00,1*62
$GPGSV,2,2,05,22,33,133,00,,,,,,,,,,,,,1*50
$GPRMC,093039.98,A,4423.5784884,N,03359.0649560,E,2.84,223.19,011220,0.0,E,A*3E
$GPGGA,093039.98,4423.5784884,N,03359.0649560,E,3,05,1.0,9.912,M,0.000,M,0.0,*79
$GPGSA,A,3,03,06,07,09,22,,,,,,,,4.9,2.4,4.3,1*28
$GPGSV,2,1,05,03,56,127,00,06,38,292,00,07,24,206,00,09,55,279,00,1*62
$GPGSV,2,2,05,22,33,133,00,,,,,,,,,,,,,1*50
$GPRMC,093040.98,A,4423.5782364,N,03359.0650160,E,3.04,207.94,011220,0.0,E,A*35
$GPGGA,093040.98,4423.5782364,N,03359.0650160,E,3,05,1.0,11.052,M,0.000,M,0.0,*4C
$GPGSA,A,3,03,06,07,09,22,,,,,,,,4.9,2.4,4.3,1*28
$GPGSV,2,1,05,03,56,127,00,06,38,292,00,07,24,206,00,09,55,279,00,1*62
$GPGSV,2,2,05,22,33,133,00,,,,,,,,,,,,,1*50
$GPRMC,093041.98,A,4423.5780368,N,03359.0650798,E,0.88,207.94,011220,0.0,E,A*3C
$GPGGA,093041.98,4423.5780368,N,03359.0650798,E,3,05,1.0,11.976,M,0.000,M,0.0,*4D
$GPGSA,A,3,03,06,07,09,22,,,,,,,,4.9,2.4,4.3,1*28
$GPGSV,2,1,05,03,56,127,00,06,38,292,00,07,24,206,00,09,55,279,00,1*62
$GPGSV,2,2,05,22,33,133,00,,,,,,,,,,,,,1*50
$GPRMC,093042.98,A,4423.5779624,N,03359.0650004,E,2.10,26.09,011220,0.0,E,A*00
$GPGGA,093042.98,4423.5779624,N,03359.0650004,E,3,05,1.0,12.051,M,0.000,M,0.0,*48
$GPGSA,A,3,03,06,07,09,22,,,,,,,,4.9,2.4,4.3,1*28
$GPGSV,2,1,05,03,56,127,00,06,38,292,00,07,24,206,00,09,55,279,00,1*62
$GPGSV,2,2,05,22,33,133,00,,,,,,,,,,,,,1*50
$GPRMC,093043.98,A,4423.5778715,N,03359.0650031,E,7.00,222.52,011220,0.0,E,A*39
$GPGGA,093043.98,4423.5778715,N,03359.0650031,E,3,05,1.0,12.832,M,0.000,M,0.0,*40
$GPGSA,A,3,03,06,07,09,22,,,,,,,,4.9,2.4,4.3,1*28
$GPGSV,2,1,05,03,56,127,00,06,38,292,00,07,24,206,00,09,55,279,00,1*62
$GPGSV,2,2,05,22,33,133,00,,,,,,,,,,,,,1*50
$GPRMC,093044.98,A,4423.5778343,N,03359.0650199,E,3.72,48.21,011220,0.0,E,A*01
$GPGGA,093044.98,4423.5778343,N,03359.0650199,E,3,05,1.0,13.486,M,0.000,M,0.0,*41
$GPGSA,A,3,03,06,07,09,22,,,,,,,,4.9,2.4,4.3,1*28
$GPGSV,2,1,05,03,56,127,00,06,38,292,00,07,24,206,00,09,55,279,00,1*62
$GPGSV,2,2,05,22,33,133,00,,,,,,,,,,,,,1*50
$GPRMC,093045.98,A,4423.5777844,N,03359.0650469,E,0.84,48.21,011220,0.0,E,A*03
$GPGGA,093045.98,4423.5777844,N,03359.0650469,E,3,05,1.0,14.289,M,0.000,M,0.0,*47
$GPGSA,A,3,03,06,07,09,22,,,,,,,,4.9,2.4,4.3,1*28
$GPGSV,2,1,05,03,56,127,00,06,38,292,00,07,24,206,00,09,55,279,00,1*62
$GPGSV,2,2,05,22,33,133,00,,,,,,,,,,,,,1*50
$GPRMC,093046.98,A,4423.5778295,N,03359.0651153,E,2.81,29.56,011220,0.0,E,A*04
$GPGGA,093046.98,4423.5778295,N,03359.0651153,E,3,05,1.0,14.375,M,0.000,M,0.0,*42
$GPGSA,A,3,03,06,07,09,22,,,,,,,,4.9,2.4,4.3,1*28
$GPGSV,2,1,05,03,56,127,00,06,38,292,00,07,24,206,00,09,55,279,00,1*62
$GPGSV,2,2,05,22,33,133,00,,,,,,,,,,,,,1*50
$GPRMC,093047.98,A,4423.5777563,N,03359.0651187,E,1.02,29.56,011220,0.0,E,A*05
$GPGGA,093047.98,4423.5777563,N,03359.0651187,E,3,05,1.0,14.600,M,0.000,M,0.0,*4C
$GPGSA,A,3,03,06,07,09,22,,,,,,,,4.9,2.4,4.3,1*28
$GPGSV,2,1,05,03,56,127,00,06,38,292,00,07,24,206,00,09,55,279,00,1*62
$GPGSV,2,2,05,22,33,133,00,,,,,,,,,,,,,1*50
$GPRMC,093048.98,A,4423.5780530,N,03359.0651641,E,3.75,6.66,011220,0.0,E,A*35
$GPGGA,093048.98,4423.5780530,N,03359.0651641,E,3,05,1.0,13.408,M,0.000,M,0.0,*4D
$GPGSA,A,3,03,06,07,09,22,,,,,,,,4.9,2.4,4.3,1*28
$GPGSV,2,1,05,03,56,127,00,06,38,292,00,07,24,206,00,09,55,279,00,1*62
$GPGSV,2,2,05,22,33,133,00,,,,,,,,,,,,,1*50
$GPRMC,093049.98,A,4423.5779102,N,03359.0652266,E,1.43,6.66,011220,0.0,E,A*32
$GPGGA,093049.98,4423.5779102,N,03359.0652266,E,3,05,1.0,14.484,M,0.000,M,0.0,*4E
$GPGSA,A,3,03,06,07,09,22,,,,,,,,4.9,2.4,4.3,1*28
$GPGSV,2,1,05,03,56,127,00,06,38,292,00,07,24,206,00,09,55,279,00,1*62
$GPGSV,2,2,05,22,33,133,00,,,,,,,,,,,,,1*50
$GPRMC,093050.98,A,4423.5777143,N,03359.0651619,E,0.85,6.66,011220,0.0,E,A*35
$GPGGA,093050.98,4423.5777143,N,03359.0651619,E,3,05,1.0,15.330,M,0.000,M,0.0,*4B
$GPGSA,A,3,03,06,07,09,22,,,,,,,,4.9,2.4,4.3,1*28
$GPGSV,2,1,05,03,56,127,00,06,38,292,00,07,24,206,00,09,55,279,00,1*62
$GPGSV,2,2,05,22,33,133,00,,,,,,,,,,,,,1*50
$GPRMC,093051.98,A,4423.5776720,N,03359.0651925,E,1.29,6.66,011220,0.0,E,A*31
$GPGGA,093051.98,4423.5776720,N,03359.0651925,E,3,05,1.0,15.738,M,0.000,M,0.0,*44
$GPGSA,A,3,03,06,07,09,22,,,,,,,,4.9,2.4,4.3,1*28
$GPGSV,2,1,05,03,56,127,00,06,38,292,00,07,24,206,00,09,55,279,00,1*62
$GPGSV,2,2,05,22,33,133,00,,,,,,,,,,,,,1*50
$GPRMC,093052.98,A,4423.5775363,N,03359.0651146,E,1.40,6.66,011220,0.0,E,A*30
$GPGGA,093052.98,4423.5775363,N,03359.0651146,E,3,05,1.0,16.187,M,0.000,M,0.0,*4B
$GPGSA,A,3,03,06,07,09,22,,,,,,,,4.9,2.4,4.3,1*28
$GPGSV,2,1,05,03,56,127,00,06,38,292,00,07,24,206,00,09,55,279,00,1*62
$GPGSV,2,2,05,22,33,133,00,,,,,,,,,,,,,1*50
$GPRMC,093053.98,A,4423.5774596,N,03359.0650949,E,1.31,6.66,011220,0.0,E,A*3C
$GPGGA,093053.98,4423.5774596,N,03359.0650949,E,3,05,1.0,16.898,M,0.000,M,0.0,*46
$GPGSA,A,3,03,06,07,09,22,,,,,,,,4.9,2.4,4.3,1*28
$GPGSV,2,1,05,03,56,127,00,06,38,292,00,07,24,206,00,09,55,279,00,1*62
$GPGSV,2,2,05,22,33,133,00,,,,,,,,,,,,,1*50
$GPRMC,093054.98,A,4423.5774158,N,03359.0650793,E,3.06,11.75,011220,0.0,E,A*06
$GPGGA,093054.98,4423.5774158,N,03359.0650793,E,3,05,1.0,17.219,M,0.000,M,0.0,*4C
$GPGSA,A,3,03,06,07,09,22,,,,,,,,4.9,2.4,4.3,1*28
$GPGSV,2,1,05,03,56,127,00,06,38,292,00,07,24,206,00,09,55,279,00,1*62
$GPGSV,2,2,05,22,33,133,00,,,,,,,,,,,,,1*50
