     3.02           OBSERVATION DATA    G                   RINEX VERSION / TYPE
G = GPS  R = GLONASS  E = GALILEO  S = GEO  M = MIXED       COMMENT             
GNSS-SDR            kannab              20201201 093000 UTC PGM / RUN BY / DATE 
GPS OBSERVATION DATA FILE GENERATED BY GNSS-SDR             COMMENT             
GNSS-SDR VERSION 0.0.13                                     COMMENT             
See https://gnss-sdr.org                                    COMMENT             
DEFAULT MARKER NAME                                         MARKER NAME         
kannab              CTTC                                    OBSERVER / AGENCY   
GNSS-SDR            Software Receiver   0.0.13              REC # / TYPE / VERS 
Antenna number      Antenna type                            ANT # / TYPE        
        0.0000        0.0000        0.0000                  APPROX POSITION XYZ 
        0.0000        0.0000        0.0000                  ANTENNA: DELTA H/E/N
G    4 C1C L1C D1C S1C                                      SYS / # / OBS TYPES 
DBHZ                                                        SIGNAL STRENGTH UNIT
  2020    12    01    09    30   18.1200000     GPS         TIME OF FIRST OBS   
                                                            END OF HEADER       
> 2020 12 01 09 30 18.2000000  0  4                                             
G07  28914949.531 7 151949132.476 7      4010.113 7        45.060               
G09  26345023.610 7 138444047.021 7      2410.093 7        45.340               
G22  28019719.039 6 147244633.493 6     -2121.954 6        41.255               
G06  27372597.652 8 143843992.743 8      1439.536 8        48.100               
> 2020 12 01 09 30 18.3000000  0  4                                             
G07  28914866.091 7 151948731.465 7      4009.393 7        44.665               
G09  26344972.335 7 138443805.877 7      2413.043 7        45.373               
G22  28019754.661 6 147244845.296 6     -2115.481 6        41.652               
G06  27372563.201 7 143843848.771 7      1439.706 7        47.989               
> 2020 12 01 09 30 18.4000000  0  4                                             
G07  28914783.090 7 151948330.480 7      4010.216 7        44.437               
G09  26344918.915 7 138443564.535 7      2412.335 7        43.719               
G22  28019790.113 6 147245057.139 6     -2121.067 6        41.913               
G06  27372527.150 7 143843704.831 7      1437.871 7        47.517               
> 2020 12 01 09 30 18.5000000  0  4                                             
G07  28914700.713 7 151947929.516 7      4008.319 7        44.137               
G09  26344866.872 7 138443323.504 7      2409.244 7        43.936               
G22  28019824.082 7 147245269.034 7     -2122.348 7        42.110               
G06  27372492.180 7 143843560.915 7      1441.433 7        47.398               
> 2020 12 01 09 30 18.6000000  0  4                                             
G07  28914622.626 7 151947528.528 7      4010.401 7        44.780               
G09  26344815.516 7 138443082.411 7      2410.647 7        43.849               
G22  28019861.580 7 147245480.878 7     -2119.327 7        42.256               
G06  27372456.425 7 143843416.975 7      1439.933 7        47.464               
> 2020 12 01 09 30 18.7000000  0  4                                             
G07  28914543.555 7 151947127.506 7      4013.551 7        45.219               
G09  26344761.757 7 138442841.394 7      2409.015 7        42.949               
G22  28019898.631 7 147245692.702 7     -2121.276 7        42.376               
G06  27372421.446 7 143843273.101 7      1437.809 7        47.134               
> 2020 12 01 09 30 18.8000000  0  4                                             
G07  28914463.109 7 151946726.457 7      4013.835 7        45.349               
G09  26344708.177 7 138442600.400 7      2409.607 7        42.583               
G22  28019931.519 7 147245904.513 7     -2117.639 7        42.199               
G06  27372390.541 7 143843129.202 7      1439.319 7        47.181               
> 2020 12 01 09 30 18.9000000  0  4                                             
G07  28914383.315 7 151946325.402 7      4010.875 7        45.243               
G09  26344658.546 7 138442359.266 7      2409.729 7        43.061               
G22  28019968.803 7 147246116.296 7     -2116.266 7        42.333               
G06  27372359.699 7 143842985.209 7      1439.952 7        47.575               
> 2020 12 01 09 30 19.0000000  0  4                                             
G07  28914303.932 7 151945924.427 7      4011.020 7        45.347               
G09  26344612.497 7 138442118.245 7      2406.865 7        43.769               
G22  28020004.729 7 147246328.155 7     -2118.571 7        42.702               
G06  27372328.241 7 143842841.374 7      1437.387 7        47.640               
> 2020 12 01 09 30 19.1000000  0  4                                             
G07  28914223.423 7 151945523.498 7      4009.178 7        45.829               
G09  26344563.635 7 138441877.378 7      2408.194 7        44.115               
G22  28020041.369 7 147246540.054 7     -2118.890 7        43.154               
G06  27372297.158 7 143842697.555 7      1437.998 7        47.887               
> 2020 12 01 09 30 19.2000000  0  4                                             
G07  28914143.102 7 151945122.530 7      4012.501 7        46.328               
G09  26344513.878 7 138441636.330 7      2411.422 7        44.607               
G22  28020077.304 7 147246751.911 7     -2119.684 7        43.526               
G06  27372262.528 7 143842553.653 7      1440.301 7        47.840               
> 2020 12 01 09 30 19.3000000  0  4                                             
G07  28914061.655 7 151944721.549 7      4011.664 7        46.626               
G09  26344463.568 7 138441395.328 7      2406.033 7        44.611               
G22  28020111.693 7 147246963.798 7     -2118.218 7        43.572               
G06  27372229.282 7 143842409.813 7      1435.827 7        47.782               
> 2020 12 01 09 30 19.4000000  0  4                                             
G07  28913979.689 7 151944320.609 7      4006.752 7        46.609               
G09  26344411.534 7 138441154.395 7      2410.213 7        44.643               
G22  28020148.047 7 147247175.744 7     -2122.093 7        43.480               
G06  27372196.082 7 143842266.053 7      1437.126 7        47.931               
> 2020 12 01 09 30 19.5000000  0  4                                             
G07  28913895.803 7 151943919.666 7      4009.429 7        46.086               
G09  26344359.740 7 138440913.423 7      2407.946 7        44.590               
G22  28020179.809 7 147247387.644 7     -2115.637 7        43.452               
G06  27372161.407 7 143842122.252 7      1439.279 7        47.310               
> 2020 12 01 09 30 19.6000000  0  4                                             
G07  28913811.229 7 151943518.839 7      3999.510 7        44.927               
G09  26344308.590 7 138440672.473 7      2405.195 7        44.915               
G22  28020211.000 7 147247599.564 7     -2122.752 7        43.337               
G06  27372127.831 7 143841978.417 7      1438.829 7        47.022               
> 2020 12 01 09 30 19.7000000  0  4                                             
G07  28913727.575 7 151943117.932 7      4007.975 7        44.308               
G09  26344255.582 7 138440431.542 7      2405.446 7        44.694               
G22  28020243.745 7 147247811.473 7     -2121.052 7        43.190               
G06  27372096.453 7 143841834.621 7      1438.318 7        47.262               
> 2020 12 01 09 30 19.8000000  0  4                                             
G07  28913646.370 7 151942716.977 7      4011.436 7        44.438               
G09  26344205.307 7 138440190.634 7      2407.397 7        44.513               
G22  28020280.582 7 147248023.389 7     -2119.142 7        43.273               
G06  27372064.057 7 143841690.854 7      1436.195 7        47.046               
> 2020 12 01 09 30 19.9000000  0  4                                             
G07  28913564.762 7 151942316.077 7      4009.412 7        44.737               
G09  26344157.177 7 138439949.650 7      2410.315 7        44.745               
G22  28020317.240 7 147248235.339 7     -2120.238 7        43.377               
G06  27372031.910 7 143841547.066 7      1436.510 7        47.033               
> 2020 12 01 09 30 20.0000000  0  4                                             
G07  28913482.377 7 151941915.249 7      4011.357 7        44.918               
G09  26344105.875 7 138439708.764 7      2406.728 7        45.205               
G22  28020350.610 7 147248447.327 7     -2122.082 7        43.222               
G06  27372001.149 7 143841403.371 7      1438.003 7        47.388               
> 2020 12 01 09 30 20.1000000  0  4                                             
G07  28913401.225 7 151941514.420 7      4010.294 7        44.935               
G09  26344054.627 7 138439467.977 7      2408.644 7        44.901               
G22  28020381.908 7 147248659.345 7     -2123.059 7        43.214               
G06  27371968.690 7 143841259.716 7      1434.810 7        47.622               
> 2020 12 01 09 30 20.2000000  0  4                                             
G07  28913318.464 7 151941113.539 7      4007.896 7        45.202               
G09  26344004.593 7 138439227.107 7      2409.853 7        44.894               
G22  28020415.591 7 147248871.342 7     -2121.475 7        43.272               
G06  27371937.606 7 143841115.998 7      1437.385 7        47.663               
> 2020 12 01 09 30 20.3000000  0  4                                             
G07  28913238.197 7 151940712.680 7      4010.189 7        45.138               
G09  26343952.630 7 138438986.164 7      2411.284 7        44.829               
G22  28020451.311 7 147249083.382 7     -2119.758 7        43.063               
G06  27371904.942 7 143840972.359 7      1435.386 7        47.453               
> 2020 12 01 09 30 20.4000000  0  4                                             
G07  28913156.222 7 151940311.895 7      4009.271 7        45.079               
G09  26343900.453 7 138438745.369 7      2406.186 7        44.566               
G22  28020488.631 7 147249295.405 7     -2120.979 7        43.251               
G06  27371871.938 7 143840828.698 7      1436.860 7        47.616               
> 2020 12 01 09 30 20.5000000  0  4                                             
G07  28913075.767 7 151939911.101 7      4005.982 7        45.181               
G09  26343849.303 7 138438504.587 7      2408.063 7        44.518               
G22  28020527.156 7 147249507.421 7     -2120.957 7        43.845               
G06  27371838.666 7 143840685.075 7      1437.482 7        47.480               
> 2020 12 01 09 30 20.6000000  0  4                                             
G07  28912993.150 7 151939510.315 7      4010.531 7        45.165               
G09  26343797.911 7 138438263.842 7      2407.276 7        44.671               
G22  28020563.824 7 147249719.495 7     -2120.319 7        44.147               
G06  27371803.803 7 143840541.472 7      1435.519 7        47.069               
> 2020 12 01 09 30 20.7000000  0  4                                             
G07  28912910.979 7 151939109.458 7      4008.872 7        45.287               
G09  26343744.277 7 138438023.026 7      2407.205 7        44.459               
G22  28020598.052 7 147249931.550 7     -2124.920 7        44.148               
G06  27371770.370 7 143840397.841 7      1434.392 7        46.726               
> 2020 12 01 09 30 20.8000000  0  4                                             
G07  28912831.069 7 151938708.681 7      4005.632 7        45.694               
G09  26343693.369 7 138437782.226 7      2411.407 7        43.874               
G22  28020632.369 7 147250143.609 7     -2119.170 7        43.651               
G06  27371737.420 7 143840254.239 7      1438.106 7        46.796               
> 2020 12 01 09 30 20.9000000  0  4                                             
G07  28912750.033 7 151938307.921 7      4007.635 7        46.100               
G09  26343637.841 7 138437541.335 7      2407.855 7        43.827               
G22  28020664.891 7 147250355.675 7     -2117.671 7        43.228               
G06  27371705.863 7 143840110.616 7      1434.957 7        46.822               
> 2020 12 01 09 30 21.0000000  0  4                                             
G07  28912666.692 7 151937907.204 7      4010.087 7        45.906               
G09  26343583.876 7 138437300.648 7      2408.660 7        43.634               
G22  28020697.466 7 147250567.779 7     -2120.411 7        43.025               
G06  27371673.136 7 143839967.050 7      1433.198 7        47.124               
> 2020 12 01 09 30 21.1000000  0  4                                             
G07  28912579.723 7 151937506.394 7      4005.551 7        45.007               
G09  26343530.198 7 138437059.826 7      2405.386 7        43.477               
G22  28020732.588 7 147250779.933 7     -2124.108 7        43.006               
G06  27371640.927 7 143839823.580 7      1435.009 7        47.234               
> 2020 12 01 09 30 21.2000000  0  4                                             
G07  28912498.973 7 151937105.675 7      4009.002 7        44.654               
G09  26343479.360 7 138436819.086 7      2403.870 7        43.376               
G22  28020768.469 7 147250992.083 7     -2119.727 7        42.686               
G06  27371607.324 7 143839680.028 7      1435.309 7        47.311               
> 2020 12 01 09 30 21.3000000  0  4                                             
G07  28912419.742 7 151936705.010 7      4007.240 7        45.321               
G09  26343428.898 7 138436578.495 7      2410.669 7        43.924               
G22  28020803.679 7 147251204.206 7     -2120.838 7        42.935               
G06  27371574.517 7 143839536.540 7      1435.230 7        47.246               
> 2020 12 01 09 30 21.4000000  0  4                                             
G07  28912340.948 7 151936304.363 7      4007.267 7        45.588               
G09  26343378.472 7 138436337.747 7      2408.561 7        43.959               
G22  28020837.300 7 147251416.366 7     -2122.259 7        42.811               
G06  27371540.655 7 143839393.053 7      1434.706 7        47.254               
> 2020 12 01 09 30 21.5000000  0  4                                             
G07  28912261.190 7 151935903.705 7      4004.746 7        45.885               
G09  26343328.367 7 138436097.087 7      2404.633 7        44.064               
G22  28020870.411 7 147251628.551 7     -2120.926 7        42.638               
G06  27371506.677 7 143839249.561 7      1432.819 7        46.869               
> 2020 12 01 09 30 21.6000000  0  4                                             
G07  28912178.903 7 151935502.980 7      4007.178 7        45.513               
G09  26343281.765 7 138435856.545 7      2408.948 7        43.854               
G22  28020906.257 7 147251840.748 7     -2119.439 7        42.595               
G06  27371474.897 7 143839106.171 7      1432.881 7        46.772               
> 2020 12 01 09 30 21.7000000  0  4                                             
G07  28912097.224 7 151935102.285 7      4005.012 7        45.161               
G09  26343234.349 7 138435615.715 7      2409.421 7        44.521               
G22  28020942.415 7 147252052.927 7     -2123.186 7        42.550               
G06  27371441.384 7 143838962.728 7      1433.494 7        46.559               
> 2020 12 01 09 30 21.8000000  0  4                                             
G07  28912014.812 7 151934701.623 7      4008.263 7        45.170               
G09  26343181.787 7 138435374.999 7      2407.618 7        44.927               
G22  28020978.036 7 147252265.134 7     -2121.055 7        42.591               
G06  27371405.637 7 143838819.264 7      1436.024 7        46.336               
> 2020 12 01 09 30 21.9000000  0  4                                             
G07  28911932.427 7 151934300.962 7      4005.551 7        45.294               
G09  26343128.252 7 138435134.383 7      2412.238 7        44.003               
G22  28021013.641 7 147252477.307 7     -2126.562 7        42.671               
G06  27371373.580 7 143838675.832 7      1433.473 7        46.568               
> 2020 12 01 09 30 22.0000000  0  4                                             
G07  28911847.147 7 151933900.273 7      4009.683 7        45.145               
G09  26343074.314 7 138434893.727 7      2405.004 7        44.102               
G22  28021049.093 7 147252689.470 7     -2122.740 7        42.812               
G06  27371341.996 7 143838532.471 7      1433.804 7        46.861               
> 2020 12 01 09 30 22.1000000  0  4                                             
G07  28911763.252 7 151933499.559 7      4005.798 7        44.515               
G09  26343021.886 7 138434653.092 7      2408.287 7        44.392               
G22  28021083.848 7 147252901.675 7     -2124.122 7        42.877               
G06  27371307.143 7 143838389.041 7      1434.676 7        46.681               
> 2020 12 01 09 30 22.2000000  0  4                                             
G07  28911683.261 7 151933098.951 7      4007.528 7        44.567               
G09  26342971.683 7 138434412.419 7      2406.522 7        44.579               
G22  28021117.468 7 147253113.948 7     -2119.940 7        42.540               
G06  27371273.227 7 143838245.659 7      1433.724 7        46.650               
> 2020 12 01 09 30 22.3000000  0  4                                             
G07  28911603.538 7 151932698.412 7      4004.433 7        45.220               
G09  26342918.282 7 138434171.792 7      2405.308 7        44.497               
G22  28021153.903 7 147253326.233 7     -2128.217 7        42.562               
G06  27371241.134 7 143838102.291 7      1433.784 7        46.380               
> 2020 12 01 09 30 22.4000000  0  4                                             
G07  28911523.047 7 151932297.887 7      4005.430 7        45.263               
G09  26342865.479 7 138433931.282 7      2404.582 7        43.728               
G22  28021190.615 7 147253538.516 7     -2123.835 7        42.724               
G06  27371209.542 7 143837958.939 7      1434.124 7        46.764               
> 2020 12 01 09 30 22.5000000  0  4                                             
G07  28911443.736 7 151931897.308 7      4004.919 7        45.298               
G09  26342816.598 7 138433690.823 7      2404.971 7        43.409               
G22  28021227.542 7 147253750.821 7     -2120.953 7        42.753               
G06  27371178.182 7 143837815.695 7      1431.203 7        46.979               
> 2020 12 01 09 30 22.6000000  0  4                                             
G07  28911361.833 7 151931496.721 7      4006.876 7        45.591               
G09  26342767.816 7 138433450.203 7      2405.467 7        43.516               
G22  28021262.011 7 147253963.123 7     -2122.893 7        42.634               
G06  27371144.981 7 143837672.434 7      1431.525 7        46.831               
> 2020 12 01 09 30 22.7000000  0  4                                             
G07  28911282.092 7 151931096.179 7      4005.501 7        46.366               
G09  26342717.389 7 138433209.670 7      2403.644 7        43.958               
G22  28021295.775 7 147254175.465 7     -2121.586 7        42.707               
G06  27371108.913 7 143837529.124 7      1433.231 7        46.343               
> 2020 12 01 09 30 22.8000000  0  4                                             
G07  28911201.342 7 151930695.569 7      4006.202 7        46.940               
G09  26342665.498 7 138432969.170 7      2405.104 7        44.161               
G22  28021330.467 7 147254387.749 7     -2122.342 7        42.657               
G06  27371076.998 7 143837385.778 7      1434.826 7        46.074               
> 2020 12 01 09 30 22.9000000  0  4                                             
G07  28911119.627 7 151930294.947 7      4004.798 7        47.367               
G09  26342608.755 7 138432728.584 7      2405.118 7        43.665               
G22  28021365.392 7 147254600.029 7     -2124.895 7        42.231               
G06  27371047.935 7 143837242.542 7      1431.887 7        46.425               
> 2020 12 01 09 30 23.0000000  0  4                                             
G07  28911038.064 7 151929894.435 7      4003.023 7        47.120               
G09  26342553.486 7 138432488.087 7      2403.854 7        42.997               
G22  28021399.906 7 147254812.383 7     -2123.498 7        42.229               
G06  27371012.313 7 143837099.334 7      1433.552 7        46.307               
> 2020 12 01 09 30 23.1000000  0  4                                             
G07  28910955.250 7 151929493.955 7      4005.270 7        47.037               
G09  26342498.395 7 138432247.610 7      2404.477 7        42.089               
G22  28021434.715 7 147255024.741 7     -2125.804 7        42.393               
G06  27370975.601 7 143836956.030 7      1432.724 7        45.673               
> 2020 12 01 09 30 23.2000000  0  4                                             
G07  28910872.776 7 151929093.449 7      4005.214 7        46.832               
G09  26342442.573 6 138432007.001 6      2408.752 6        41.530               
G22  28021469.872 7 147255237.085 7     -2122.315 7        42.769               
G06  27370946.349 7 143836812.866 7      1432.342 7        45.785               
> 2020 12 01 09 30 23.3000000  0  4                                             
G07  28910788.943 7 151928692.947 7      4006.201 7        46.506               
G09  26342395.255 6 138431766.508 6      2401.069 6        41.994               
G22  28021503.305 7 147255449.434 7     -2124.032 7        43.140               
G06  27370916.812 7 143836669.693 7      1429.253 7        46.044               
> 2020 12 01 09 30 23.4000000  0  4                                             
G07  28910706.335 7 151928292.373 7      4004.961 7        46.054               
G09  26342349.002 7 138431526.021 7      2403.982 7        42.790               
G22  28021538.909 7 147255661.796 7     -2123.125 7        42.799               
G06  27370886.211 7 143836526.453 7      1432.953 7        45.981               
> 2020 12 01 09 30 23.5000000  0  4                                             
G07  28910622.207 7 151927891.834 7      4008.301 7        45.862               
G09  26342300.264 7 138431285.483 7      2403.394 7        43.452               
G22  28021572.584 7 147255874.133 7     -2122.653 7        42.821               
G06  27370856.102 7 143836383.170 7      1435.164 7        46.155               
> 2020 12 01 09 30 23.6000000  0  4                                             
G07  28910539.179 7 151927491.296 7      4004.986 7        45.616               
G09  26342248.980 7 138431044.962 7      2401.879 7        43.311               
G22  28021605.195 7 147256086.469 7     -2124.683 7        43.098               
G06  27370823.750 7 143836239.967 7      1433.011 7        46.351               
> 2020 12 01 09 30 23.7000000  0  4                                             
G07  28910455.409 7 151927090.728 7      4001.913 7        45.678               
G09  26342197.865 7 138430804.394 7      2408.152 7        43.219               
G22  28021638.074 7 147256298.805 7     -2124.998 7        43.421               
G06  27370790.040 7 143836096.752 7      1435.265 7        46.327               
> 2020 12 01 09 30 23.8000000  0  4                                             
G07  28910372.541 7 151926690.238 7      4000.304 7        45.240               
G09  26342147.153 7 138430563.916 7      2402.916 7        43.100               
G22  28021671.176 7 147256511.185 7     -2124.068 7        43.070               
G06  27370758.447 7 143835953.556 7      1432.366 7        46.490               
> 2020 12 01 09 30 23.9000000  0  4                                             
G07  28910288.521 7 151926289.770 7      4004.872 7        44.734               
G09  26342098.103 7 138430323.454 7      2402.275 7        43.441               
G22  28021705.136 7 147256723.554 7     -2123.267 7        42.937               
G06  27370728.678 7 143835810.401 7      1430.807 7        46.879               
> 2020 12 01 09 30 24.0000000  0  4                                             
G07  28910208.879 7 151925889.214 7      4001.914 7        44.445               
G09  26342049.535 7 138430082.980 7      2407.193 7        43.874               
G22  28021743.858 7 147256935.916 7     -2126.527 7        43.235               
G06  27370694.351 7 143835667.223 7      1432.824 7        46.692               
> 2020 12 01 09 30 24.1000000  0  4                                             
G07  28910128.567 7 151925488.668 7      4002.119 7        44.388               
G09  26341998.313 7 138429842.498 7      2402.937 7        44.487               
G22  28021779.596 7 147257148.280 7     -2127.320 7        43.133               
G06  27370659.516 7 143835524.030 7      1431.056 7        46.474               
> 2020 12 01 09 30 24.2000000  0  4                                             
G07  28910047.397 7 151925088.165 7      4005.561 7        44.332               
G09  26341946.957 7 138429602.111 7      2403.742 7        44.813               
G22  28021817.103 7 147257360.696 7     -2123.581 7        43.343               
G06  27370626.681 7 143835380.905 7      1429.098 7        46.449               
> 2020 12 01 09 30 24.3000000  0  4                                             
G07  28909966.503 7 151924687.706 7      4009.267 7        44.410               
G09  26341893.654 7 138429361.686 7      2404.348 7        44.813               
G22  28021853.815 7 147257573.143 7     -2124.315 7        43.746               
G06  27370592.015 7 143835237.844 7      1431.385 7        46.384               
> 2020 12 01 09 30 24.4000000  0  4                                             
G07  28909884.922 7 151924287.276 7      4004.803 7        44.324               
G09  26341839.332 7 138429121.288 7      2401.226 7        44.490               
G22  28021888.588 7 147257785.595 7     -2123.202 7        44.084               
G06  27370559.521 7 143835094.793 7      1429.274 7        46.308               
> 2020 12 01 09 30 24.5000000  0  4                                             
G07  28909801.876 7 151923886.967 7      4006.257 7        44.013               
G09  26341786.672 7 138428880.991 7      2401.610 7        44.295               
G22  28021925.532 7 147257998.107 7     -2126.491 7        44.230               
G06  27370526.758 7 143834951.730 7      1430.473 7        46.349               
> 2020 12 01 09 30 24.6000000  0  4                                             
G07  28909718.410 7 151923486.556 7      4007.677 7        43.992               
G09  26341736.085 7 138428640.576 7      2406.544 7        44.079               
G22  28021960.449 7 147258210.598 7     -2124.475 7        43.919               
G06  27370494.209 7 143834808.679 7      1433.136 7        46.456               
> 2020 12 01 09 30 24.7000000  0  4                                             
G07  28909637.678 7 151923086.068 7      4002.824 7        43.873               
G09  26341685.087 7 138428400.154 7      2405.356 7        44.433               
G22  28021996.535 7 147258423.019 7     -2123.370 7        43.762               
G06  27370462.688 7 143834665.597 7      1431.761 7        46.746               
> 2020 12 01 09 30 24.8000000  0  4                                             
G07  28909554.828 7 151922685.584 7      4002.601 7        43.787               
G09  26341635.223 7 138428159.722 7      2405.542 7        44.539               
G22  28022029.235 7 147258635.415 7     -2129.429 7        43.690               
G06  27370432.373 7 143834522.494 7      1429.746 7        47.047               
> 2020 12 01 09 30 24.9000000  0  4                                             
G07  28909474.855 7 151922285.106 7      4003.981 7        43.728               
G09  26341580.964 7 138427919.109 7      2411.317 7        43.987               
G22  28022063.812 7 147258847.843 7     -2125.763 7        43.782               
G06  27370400.808 7 143834379.401 7      1431.781 7        47.747               
> 2020 12 01 09 30 25.0000000  0  4                                             
G07  28909394.007 7 151921884.709 7      4007.027 7        43.578               
G09  26341524.998 7 138427678.947 7      2399.289 7        42.797               
G22  28022098.049 7 147259060.313 7     -2126.240 7        43.732               
G06  27370366.857 8 143834236.338 8      1429.350 8        48.134               
> 2020 12 01 09 30 25.1000000  0  4                                             
G07  28909313.257 7 151921484.269 7      4000.822 7        44.092               
G09  26341474.000 7 138427438.456 7      2405.158 7        42.771               
G22  28022134.564 7 147259272.776 7     -2126.793 7        43.871               
G06  27370332.700 8 143834093.280 8      1433.071 8        48.137               
> 2020 12 01 09 30 25.2000000  0  4                                             
G07  28909233.748 7 151921083.815 7      4004.684 7        44.350               
G09  26341423.386 7 138427198.067 7      2406.091 7        42.889               
G22  28022169.999 7 147259485.234 7     -2123.529 7        43.816               
G06  27370300.009 8 143833950.250 8      1429.923 8        48.306               
> 2020 12 01 09 30 25.3000000  0  4                                             
G07  28909153.347 7 151920683.356 7      4001.665 7        44.710               
G09  26341374.577 7 138426957.671 7      2405.647 7        43.366               
G22  28022205.388 7 147259697.675 7     -2123.669 7        43.749               
G06  27370266.040 8 143833807.215 8      1430.383 8        48.213               
> 2020 12 01 09 30 25.4000000  0  4                                             
G07  28909072.731 7 151920282.962 7      4003.677 7        44.715               
G09  26341324.249 7 138426717.276 7      2399.775 7        43.694               
G22  28022240.831 7 147259910.130 7     -2125.161 7        43.741               
G06  27370231.034 7 143833664.212 7      1429.217 7        47.772               
> 2020 12 01 09 30 25.5000000  0  4                                             
G07  28908990.524 7 151919882.557 7      4003.604 7        44.154               
G09  26341274.850 7 138426476.911 7      2402.885 7        43.727               
G22  28022274.175 7 147260122.556 7     -2125.796 7        43.781               
G06  27370197.548 7 143833521.158 7      1429.919 7        47.354               
> 2020 12 01 09 30 25.6000000  0  4                                             
G07  28908908.854 7 151919482.129 7      4005.407 7        44.109               
G09  26341223.074 7 138426236.399 7      2406.680 7        44.087               
G22  28022307.608 7 147260335.021 7     -2122.905 7        43.854               
G06  27370163.463 7 143833378.118 7      1429.879 7        47.252               
> 2020 12 01 09 30 25.7000000  0  4                                             
G07  28908828.801 7 151919081.692 7      4005.788 7        44.732               
G09  26341171.969 7 138425996.042 7      2404.414 7        43.975               
G22  28022340.648 7 147260547.496 7     -2123.754 7        43.916               
G06  27370130.458 7 143833235.148 7      1430.377 7        47.265               
> 2020 12 01 09 30 25.8000000  0  4                                             
G07  28908749.444 7 151918681.215 7      4005.700 7        45.371               
G09  26341120.238 7 138425755.691 7      2403.029 7        43.690               
G22  28022375.001 7 147260759.965 7     -2120.316 7        43.735               
G06  27370099.054 7 143833092.113 7      1430.966 7        47.334               
> 2020 12 01 09 30 25.9000000  0  4                                             
G07  28908668.489 7 151918280.733 7      4002.309 7        45.478               
G09  26341067.882 7 138425515.263 7      2406.062 7        43.609               
G22  28022407.674 7 147260972.395 7     -2126.591 7        43.904               
G06  27370067.193 7 143832949.049 7      1432.872 7        47.210               
> 2020 12 01 09 30 26.0000000  0  4                                             
G07  28908586.595 7 151917880.277 7      4001.894 7        45.508               
G09  26341017.947 7 138425274.882 7      2401.148 7        43.480               
G22  28022444.127 7 147261184.838 7     -2125.204 7        43.740               
G06  27370033.876 7 143832806.083 7      1428.192 7        46.884               
> 2020 12 01 09 30 26.1000000  0  4                                             
G07  28908502.110 7 151917479.837 7      4002.209 7        45.430               
G09  26340966.466 7 138425034.416 7      2405.063 7        43.388               
G22  28022478.436 7 147261397.302 7     -2121.841 7        43.541               
G06  27370001.140 7 143832663.079 7      1431.702 7        46.866               
> 2020 12 01 09 30 26.2000000  0  4                                             
G07  28908418.322 7 151917079.367 7      4002.224 7        45.495               
G09  26340914.986 7 138424794.038 7      2400.784 7        43.357               
G22  28022515.621 7 147261609.763 7     -2123.098 7        43.598               
G06  27369971.076 7 143832520.014 7      1433.092 7        47.160               
> 2020 12 01 09 30 26.3000000  0  4                                             
G07  28908333.427 7 151916678.880 7      4006.961 7        45.267               
G09  26340866.998 7 138424553.659 7      2403.462 7        43.665               
G22  28022552.360 7 147261822.175 7     -2126.017 7        43.789               
G06  27369939.099 7 143832376.991 7      1430.327 7        47.409               
> 2020 12 01 09 30 26.4000000  0  4                                             
G07  28908250.675 7 151916278.405 7      4006.412 7        44.779               
G09  26340816.608 7 138424313.230 7      2407.775 7        43.839               
G22  28022588.482 7 147262034.592 7     -2123.232 7        43.950               
G06  27369905.943 7 143832233.972 7      1431.651 7        47.515               
> 2020 12 01 09 30 26.5000000  0  4                                             
G07  28908168.022 7 151915877.991 7      4003.156 7        44.414               
G09  26340765.994 7 138424072.885 7      2405.959 7        44.259               
G22  28022623.488 7 147262247.051 7     -2125.652 7        44.178               
G06  27369873.019 7 143832091.003 7      1429.863 7        47.567               
> 2020 12 01 09 30 26.6000000  0  4                                             
G07  28908087.236 7 151915477.521 7      4004.197 7        44.531               
G09  26340715.353 7 138423832.409 7      2403.038 7        44.251               
G22  28022656.644 7 147262459.471 7     -2124.239 7        44.354               
G06  27369840.864 7 143831947.953 7      1430.768 7        47.543               
> 2020 12 01 09 30 26.7000000  0  4                                             
G07  28908006.763 7 151915077.013 7      4006.413 7        44.754               
G09  26340659.718 7 138423591.999 7      2406.648 7        43.863               
G22  28022692.230 7 147262671.855 7     -2123.960 7        44.542               
G06  27369807.002 7 143831804.901 7      1431.559 7        47.004               
> 2020 12 01 09 30 26.8000000  0  4                                             
G07  28907924.753 7 151914676.554 7      4003.970 7        45.024               
G09  26340605.691 7 138423351.614 7      2408.945 7        43.464               
G22  28022726.922 7 147262884.319 7     -2123.816 7        44.654               
G06  27369774.910 7 143831661.911 7      1430.754 7        46.781               
> 2020 12 01 09 30 26.9000000  0  4                                             
G07  28907844.441 7 151914276.077 7      4001.246 7        45.288               
G09  26340557.087 7 138423111.178 7      2402.871 7        43.510               
G22  28022761.669 7 147263096.768 7     -2122.567 7        44.367               
G06  27369741.763 7 143831518.951 7      1428.738 7        47.084               
> 2020 12 01 09 30 27.0000000  0  4                                             
G07  28907762.538 7 151913875.661 7      4007.657 7        45.369               
G09  26340508.242 7 138422870.804 7      2403.608 7        43.985               
G22  28022794.700 7 147263309.277 7     -2124.355 7        43.739               
G06  27369708.222 7 143831375.962 7      1428.053 7        46.848               
> 2020 12 01 09 30 27.1000000  0  4                                             
G07  28907681.985 7 151913475.234 7      4002.590 7        45.373               
G09  26340458.798 7 138422630.516 7      2404.196 7        44.443               
G22  28022828.034 7 147263521.788 7     -2128.226 7        43.412               
G06  27369676.353 7 143831233.045 7      1431.325 7        46.998               
> 2020 12 01 09 30 27.2000000  0  4                                             
G07  28907599.063 7 151913074.788 7      4005.004 7        45.424               
G09  26340407.738 7 138422390.131 7      2399.737 7        44.342               
G22  28022862.236 7 147263734.262 7     -2124.065 7        43.191               
G06  27369643.474 7 143831090.121 7      1429.232 7        46.762               
> 2020 12 01 09 30 27.3000000  0  4                                             
G07  28907516.526 7 151912674.437 7      4006.833 7        45.491               
G09  26340354.836 7 138422149.737 7      2404.276 7        43.890               
G22  28022898.027 7 147263946.804 7     -2126.839 7        43.046               
G06  27369608.728 7 143830947.255 7      1429.044 7        46.580               
> 2020 12 01 09 30 27.4000000  0  4                                             
G07  28907436.125 7 151912274.023 7      4001.915 7        45.468               
G09  26340303.052 7 138421909.392 7      2401.332 7        43.965               
G22  28022934.284 7 147264159.302 7     -2126.749 7        43.122               
G06  27369574.321 7 143830804.315 7      1431.153 7        46.740               
> 2020 12 01 09 30 27.5000000  0  4                                             
G07  28907353.284 7 151911873.545 7      3999.226 7        45.340               
G09  26340252.929 7 138421668.979 7      2403.757 7        43.908               
G22  28022969.307 7 147264371.717 7     -2121.205 7        43.285               
G06  27369542.183 7 143830661.310 7      1430.051 7        46.786               
> 2020 12 01 09 30 27.6000000  0  4                                             
G07  28907269.594 7 151911473.038 7      4003.022 7        44.956               
G09  26340201.672 7 138421428.578 7      2402.808 7        44.043               
G22  28023006.751 7 147264584.141 7     -2125.544 7        43.429               
G06  27369511.154 7 143830518.347 7      1429.465 7        47.246               
> 2020 12 01 09 30 27.7000000  0  4                                             
G07  28907189.997 7 151911072.521 7      4002.277 7        44.999               
G09  26340151.969 7 138421188.144 7      2407.280 7        44.194               
G22  28023041.533 7 147264796.605 7     -2124.705 7        43.374               
G06  27369479.454 7 143830375.395 7      1429.202 7        47.741               
> 2020 12 01 09 30 27.8000000  0  4                                             
G07  28907110.801 7 151910672.099 7      4001.320 7        45.616               
G09  26340102.571 7 138420947.816 7      2403.411 7        44.326               
G22  28023075.225 7 147265009.069 7     -2124.657 7        43.290               
G06  27369447.245 7 143830232.454 7      1427.958 7        47.653               
> 2020 12 01 09 30 27.9000000  0  4                                             
G07  28907030.105 7 151910271.697 7      4005.488 7        45.842               
G09  26340052.761 7 138420707.373 7      2404.998 7        44.176               
G22  28023111.258 7 147265221.492 7     -2127.234 7        43.310               
G06  27369415.939 7 143830089.474 7      1430.437 7        47.569               
> 2020 12 01 09 30 28.0000000  0  4                                             
G07  28906948.443 7 151909871.257 7      4001.177 7        45.412               
G09  26340002.182 7 138420466.991 7      2405.993 7        44.200               
G22  28023147.622 7 147265433.932 7     -2125.121 7        43.744               
G06  27369383.891 8 143829946.530 8      1427.771 8        48.002               
> 2020 12 01 09 30 28.1000000  0  4                                             
G07  28906866.273 7 151909470.809 7      4002.086 7        45.019               
G09  26339953.212 7 138420226.665 7      2400.865 7        44.535               
G22  28023183.985 7 147265646.492 7     -2130.156 7        43.811               
G06  27369352.611 7 143829803.748 7      1429.716 7        47.897               
> 2020 12 01 09 30 28.2000000  0  4                                             
G07  28906785.576 7 151909070.463 7      3999.990 7        45.012               
G09  26339904.198 7 138419986.512 7      2403.821 7        44.858               
G22  28023216.355 7 147265859.122 7     -2124.616 7        43.813               
G06  27369319.437 7 143829660.942 7      1427.455 7        47.466               
> 2020 12 01 09 30 28.3000000  0  4                                             
G07  28906703.379 7 151908670.134 7      4002.228 7        45.096               
G09  26339852.592 7 138419746.122 7      2398.598 7        45.103               
G22  28023251.182 7 147266071.719 7     -2124.781 7        44.125               
G06  27369284.039 7 143829518.123 7      1429.042 7        47.122               
> 2020 12 01 09 30 28.4000000  0  4                                             
G07  28906622.593 7 151908269.755 7      4007.354 7        45.211               
G09  26339804.194 7 138419505.938 7      2402.220 7        45.278               
G22  28023286.151 7 147266284.297 7     -2124.745 7        44.385               
G06  27369248.167 7 143829375.349 7      1429.671 7        46.644               
> 2020 12 01 09 30 28.5000000  0  4                                             
G07  28906540.914 7 151907869.427 7      4003.891 7        45.037               
G09  26339750.801 7 138419265.692 7      2406.347 7        45.158               
G22  28023320.585 7 147266496.870 7     -2127.155 7        44.192               
G06  27369214.975 7 143829232.520 7      1428.720 7        46.497               
> 2020 12 01 09 30 28.6000000  0  4                                             
G07  28906459.056 7 151907469.084 7      4007.327 7        45.125               
G09  26339697.578 7 138419025.430 7      2402.839 7        44.956               
G22  28023353.294 7 147266709.418 7     -2128.428 7        43.927               
G06  27369181.390 7 143829089.740 7      1427.270 7        46.377               
> 2020 12 01 09 30 28.7000000  0  4                                             
G07  28906378.475 7 151907068.707 7      4002.604 7        45.373               
G09  26339647.098 7 138418785.119 7      2403.352 7        45.242               
G22  28023387.487 7 147266921.997 7     -2124.043 7        43.621               
G06  27369146.876 7 143828946.910 7      1426.151 7        46.195               
> 2020 12 01 09 30 28.8000000  0  4                                             
G07  28906298.002 7 151906668.337 7      4002.091 7        45.910               
G09  26339595.993 7 138418544.848 7      2402.716 7        45.531               
G22  28023422.242 7 147267134.586 7     -2126.874 7        43.535               
G06  27369114.274 7 143828804.147 7      1430.644 7        46.269               
> 2020 12 01 09 30 28.9000000  0  4                                             
G07  28906216.582 7 151906267.972 7      4003.949 7        46.196               
G09  26339542.109 7 138418304.637 7      2407.078 7        45.274               
G22  28023459.347 7 147267347.140 7     -2126.438 7        43.618               
G06  27369083.343 7 143828661.387 7      1427.359 7        46.400               
> 2020 12 01 09 30 29.0000000  0  4                                             
G07  28906134.786 7 151905867.634 7      4001.182 7        46.396               
G09  26339488.930 7 138418064.341 7      2403.333 7        44.766               
G22  28023494.647 7 147267559.733 7     -2124.861 7        43.735               
G06  27369053.564 7 143828518.616 7      1428.564 7        46.922               
> 2020 12 01 09 30 29.1000000  0  4                                             
G07  28906053.554 7 151905467.292 7      4002.163 7        46.712               
G09  26339434.617 7 138417824.120 7      2405.032 7        44.398               
G22  28023529.358 7 147267772.351 7     -2127.864 7        43.489               
G06  27369020.846 7 143828375.839 7      1430.135 7        46.993               
> 2020 12 01 09 30 29.2000000  0  4                                             
G07  28905971.803 7 151905066.927 7      4004.087 7        47.064               
G09  26339384.557 7 138417583.863 7      2400.686 7        44.607               
G22  28023562.487 7 147267984.910 7     -2121.018 7        43.225               
G06  27368985.903 7 143828233.076 7      1425.544 7        46.862               
> 2020 12 01 09 30 29.3000000  0  4                                             
G07  28905889.927 7 151904666.585 7      4006.714 7        47.086               
G09  26339334.068 7 138417343.546 7      2403.378 7        44.737               
G22  28023596.661 7 147268197.490 7     -2125.502 7        42.962               
G06  27368953.480 7 143828090.343 7      1426.958 7        47.018               
> 2020 12 01 09 30 29.4000000  0  4                                             
G07  28905805.326 7 151904266.296 7      4000.232 7        46.444               
G09  26339281.516 7 138417103.281 7      2401.622 7        44.594               
G22  28023633.302 7 147268410.113 7     -2122.317 7        43.022               
G06  27368916.732 7 143827947.587 7      1428.295 7        46.685               
> 2020 12 01 09 30 29.5000000  0  4                                             
G07  28905721.020 7 151903865.961 7      4002.126 7        45.619               
G09  26339229.946 7 138416863.056 7      2406.413 7        44.202               
G22  28023669.576 7 147268622.661 7     -2125.743 7        43.271               
G06  27368885.506 7 143827804.802 7      1425.595 7        46.735               
> 2020 12 01 09 30 29.6000000  0  4                                             
G07  28905638.296 7 151903465.556 7      4004.730 7        45.385               
G09  26339173.426 7 138416622.702 7      2407.525 7        43.530               
G22  28023706.869 7 147268835.201 7     -2125.939 7        43.727               
G06  27368855.030 7 143827662.053 7      1427.487 7        46.909               
> 2020 12 01 09 30 29.7000000  0  4                                             
G07  28905557.411 7 151903065.126 7      4004.778 7        45.645               
G09  26339122.401 7 138416382.431 7      2402.498 7        43.689               
G22  28023743.554 7 147269047.744 7     -2127.228 7        44.324               
G06  27368821.526 7 143827519.242 7      1429.497 7        47.006               
> 2020 12 01 09 30 29.8000000  0  4                                             
G07  28905477.626 7 151902664.707 7      4003.213 7        45.920               
G09  26339073.967 7 138416142.152 7      2402.348 7        44.037               
G22  28023780.069 7 147269260.308 7     -2124.801 7        44.145               
G06  27368790.139 7 143827376.477 7      1427.543 7        46.989               
> 2020 12 01 09 30 29.9000000  0  4                                             
G07  28905396.948 7 151902264.375 7      3999.964 7        46.273               
G09  26339023.925 7 138415901.924 7      2403.543 7        44.173               
G22  28023813.502 7 147269472.940 7     -2125.914 7        43.682               
G06  27368758.698 7 143827233.761 7      1425.850 7        47.219               
> 2020 12 01 09 30 30.0000000  0  4                                             
G07  28905316.215 7 151901864.061 7      4001.965 7        46.293               
G09  26338971.801 7 138415661.684 7      2403.022 7        44.339               
G22  28023846.515 7 147269685.536 7     -2125.348 7        43.453               
G06  27368725.489 7 143827091.020 7      1428.883 7        47.035               
> 2020 12 01 09 30 30.1000000  0  4                                             
G07  28905233.884 7 151901463.778 7      4003.231 7        46.257               
G09  26338923.054 7 138415421.503 7      2401.397 7        44.283               
G22  28023882.226 7 147269898.153 7     -2125.888 7        43.418               
G06  27368692.315 7 143826948.351 7      1425.552 7        47.048               
> 2020 12 01 09 30 30.2000000  0  4                                             
G07  28905153.178 7 151901063.482 7      4003.228 7        46.455               
G09  26338870.010 7 138415181.338 7      2407.487 7        44.038               
G22  28023917.589 7 147270110.849 7     -2125.849 7        43.522               
G06  27368661.232 7 143826805.746 7      1427.399 7        47.246               
> 2020 12 01 09 30 30.3000000  0  4                                             
G07  28905071.481 7 151900663.207 7      4004.817 7        46.360               
G09  26338814.017 7 138414941.084 7      2398.312 7        43.623               
G22  28023952.737 7 147270323.515 7     -2127.600 7        43.566               
G06  27368630.685 7 143826663.131 7      1424.418 7        47.447               
> 2020 12 01 09 30 30.4000000  0  4                                             
G07  28904988.819 7 151900263.007 7      3999.434 7        46.165               
G09  26338767.308 7 138414700.980 7      2400.582 7        43.666               
G22  28023986.653 7 147270536.201 7     -2126.794 7        43.879               
G06  27368596.001 7 143826520.505 7      1426.626 7        47.131               
> 2020 12 01 09 30 30.5000000  0  4                                             
G07  28904904.754 7 151899862.770 7      4003.052 7        45.938               
G09  26338717.954 7 138414460.886 7      2401.365 7        43.828               
G22  28024019.157 7 147270748.891 7     -2125.416 7        43.862               
G06  27368562.246 7 143826377.868 7      1427.467 7        46.926               
> 2020 12 01 09 30 30.6000000  0  4                                             
G07  28904823.799 7 151899462.475 7      4001.679 7        46.102               
G09  26338664.132 7 138414220.778 7      2401.253 7        43.745               
G22  28024053.608 7 147270961.594 7     -2126.623 7        43.850               
G06  27368529.903 7 143826235.281 7      1424.507 7        47.134               
> 2020 12 01 09 30 30.7000000  0  4                                             
G07  28904742.593 7 151899062.274 7      4000.687 7        46.096               
G09  26338615.332 7 138413980.654 7      2403.771 7        43.862               
G22  28024088.944 7 147271174.373 7     -2128.149 7        43.636               
G06  27368497.337 7 143826092.770 7      1424.946 7        47.302               
> 2020 12 01 09 30 30.8000000  0  4                                             
G07  28904660.315 7 151898662.167 7      4001.426 7        46.085               
G09  26338563.485 7 138413740.592 7      2399.937 7        43.653               
G22  28024123.789 7 147271387.176 7     -2127.127 7        43.392               
G06  27368464.726 7 143825950.246 7      1424.418 7        47.134               
> 2020 12 01 09 30 30.9000000  0  4                                             
G07  28904577.841 7 151898262.079 7      4003.133 7        46.137               
G09  26338506.920 7 138413500.628 7      2403.694 7        43.155               
G22  28024156.694 7 147271600.011 7     -2128.193 7        43.240               
G06  27368431.418 7 143825807.815 7      1423.818 7        47.050               
> 2020 12 01 09 30 31.0000000  0  4                                             
G07  28904497.242 7 151897861.920 7      4000.843 7        46.084               
G09  26338457.066 7 138413260.589 7      2401.322 7        42.845               
G22  28024192.334 7 147271812.819 7     -2130.026 7        42.975               
G06  27368396.627 7 143825665.369 7      1423.680 7        46.802               
> 2020 12 01 09 30 31.1000000  0  4                                             
G07  28904416.850 7 151897461.806 7      4003.465 7        46.329               
G09  26338405.246 7 138413020.567 7      2402.111 7        42.544               
G22  28024229.198 7 147272025.659 7     -2123.944 7        42.931               
G06  27368360.326 7 143825522.862 7      1422.292 7        46.051               
> 2020 12 01 09 30 31.2000000  0  4                                             
G07  28904335.403 7 151897061.717 7      3998.073 7        46.330               
G09  26338350.334 7 138412780.528 7      2400.132 7        42.191               
G22  28024263.337 7 147272238.513 7     -2130.603 7        43.192               
G06  27368328.564 7 143825380.484 7      1423.082 7        45.649               
> 2020 12 01 09 30 31.3000000  0  4                                             
G07  28904253.643 7 151896661.603 7      4005.183 7        46.246               
G09  26338299.077 6 138412540.565 6      2400.445 6        41.719               
G22  28024298.217 7 147272451.357 7     -2128.820 7        43.468               
G06  27368296.847 7 143825238.067 7      1424.926 7        45.666               
> 2020 12 01 09 30 31.4000000  0  4                                             
G07  28904169.757 7 151896261.493 7      4000.928 7        46.044               
G09  26338249.848 7 138412300.654 7      2397.825 7        42.346               
G22  28024333.312 7 147272664.181 7     -2125.474 7        43.750               
G06  27368265.880 7 143825095.630 7      1421.899 7        46.096               
> 2020 12 01 09 30 31.5000000  0  4                                             
G07  28904088.864 7 151895861.414 7      4002.008 7        45.892               
G09  26338202.754 7 138412060.620 7      2398.870 7        42.783               
G22  28024366.968 7 147272877.041 7     -2125.052 7        43.578               
G06  27368232.384 7 143824953.231 7      1425.374 7        46.108               
> 2020 12 01 09 30 31.6000000  0  4                                             
G07  28904007.551 7 151895461.317 7      3999.347 7        45.983               
G09  26338152.846 7 138411820.546 7      2401.428 7        43.350               
G22  28024404.654 7 147273089.873 7     -2127.008 7        43.396               
G06  27368198.236 7 143824810.846 7      1419.802 7        45.843               
> 2020 12 01 09 30 31.7000000  0  4                                             
G07  28903927.480 7 151895061.244 7      4001.068 7        46.448               
G09  26338101.508 7 138411580.661 7      2396.943 7        43.505               
G22  28024440.696 7 147273302.748 7     -2123.292 7        43.359               
G06  27368169.056 7 143824668.494 7      1423.458 7        46.048               
> 2020 12 01 09 30 31.8000000  0  4                                             
G07  28903845.318 7 151894661.123 7      4002.232 7        46.481               
G09  26338047.651 7 138411340.708 7      2400.557 7        43.599               
G22  28024475.880 7 147273515.643 7     -2133.749 7        43.462               
G06  27368139.152 7 143824526.072 7      1422.771 7        46.455               
> 2020 12 01 09 30 31.9000000  0  4                                             
G07  28903764.210 7 151894260.937 7      4000.268 7        46.295               
G09  26337993.999 7 138411100.635 7      2401.650 7        43.463               
G22  28024511.672 7 147273728.436 7     -2130.482 7        43.268               
G06  27368110.482 7 143824383.631 7      1423.716 7        46.775               
> 2020 12 01 09 30 32.0000000  0  4                                             
G07  28903683.978 7 151893860.800 7      4002.097 7        46.388               
G09  26337942.760 7 138410860.649 7      2401.908 7        43.156               
G22  28024544.247 7 147273941.236 7     -2128.259 7        43.249               
G06  27368079.640 7 143824241.237 7      1426.228 7        46.735               
> 2020 12 01 09 30 32.1000000  0  4                                             
G07  28903602.844 7 151893460.683 7      4003.381 7        46.910               
G09  26337890.126 7 138410620.653 7      2400.470 7        42.537               
G22  28024579.761 7 147274154.081 7     -2129.032 7        43.145               
G06  27368048.574 7 143824098.777 7      1425.204 7        46.822               
> 2020 12 01 09 30 32.2000000  0  4                                             
G07  28903522.156 7 151893060.524 7      4000.594 7        47.102               
G09  26337838.119 7 138410380.577 7      2400.764 7        42.185               
G22  28024613.659 7 147274366.872 7     -2125.584 7        43.154               
G06  27368016.893 7 143823956.326 7      1423.088 7        46.945               
> 2020 12 01 09 30 32.3000000  0  4                                             
G07  28903439.646 7 151892660.320 7      4001.064 7        47.125               
G09  26337785.896 7 138410140.514 7      2401.039 7        42.388               
G22  28024649.897 7 147274579.670 7     -2124.816 7        43.226               
G06  27367984.666 7 143823813.879 7      1424.711 7        47.010               
> 2020 12 01 09 30 32.4000000  0  4                                             
G07  28903359.120 7 151892260.216 7      4001.088 7        46.999               
G09  26337735.220 7 138409900.457 7      2399.641 7        42.625               
G22  28024685.501 7 147274792.457 7     -2127.160 7        43.321               
G06  27367953.565 7 143823671.485 7      1425.598 7        46.948               
> 2020 12 01 09 30 32.5000000  0  4                                             
G07  28903276.359 7 151891860.098 7      4006.267 7        46.807               
G09  26337681.050 7 138409660.441 7      2403.315 7        42.172               
G22  28024722.249 7 147275005.279 7     -2126.387 7        43.360               
G06  27367918.792 7 143823529.067 7      1424.845 7        46.717               
> 2020 12 01 09 30 32.6000000  0  4                                             
G07  28903193.965 7 151891459.899 7      4001.770 7        46.348               
G09  26337626.996 7 138409420.447 7      2399.890 7        42.025               
G22  28024755.923 7 147275218.112 7     -2128.872 7        43.778               
